{
  "stations":
    [{ "id": 1, "Area":"Göteborg","Ambulansstation":"Vassen",     "latitude":57.71863333,"longitude":11.98745},
      {"id": 2, "Area":"Göteborg","Ambulansstation":"Kortedala",  "latitude":57.75813333,"longitude":12.02705},
      {"id": 3, "Area":"Göteborg","Ambulansstation":"Mölndal",    "latitude":57.65781667,"longitude":12.02041667},
      {"id": 4, "Area":"Göteborg","Ambulansstation":"Frölunda",   "latitude":57.6599,    "longitude":11.89905},
      {"id": 5, "Area":"Göteborg","Ambulansstation":"Lundby",     "latitude":57.71153333,"longitude":11.92595},
      {"id": 6, "Area":"Göteborg","Ambulansstation":"Torslanda",  "latitude":57.71688333,"longitude":11.79851667},
      {"id": 7, "Area":"Göteborg","Ambulansstation":"Öckerö",     "latitude":57.70621667,"longitude":11.64765},
      {"id": 8, "Area":"Göteborg","Ambulansstation":"Öjersjö",    "latitude":57.70383333,"longitude":12.15021667},
      {"id": 9, "Area":"Bohuslän","Ambulansstation":"Strömstad",  "latitude":58.94911667,"longitude":11.19336667},
      {"id": 10, "Area":"Bohuslän","Ambulansstation":"Tanum",      "latitude":58.72586667,"longitude":11.32768333},
      {"id": 11, "Area":"Bohuslän","Ambulansstation":"Munkedal",   "latitude":58.47468333,"longitude":11.6637},
      {"id": 12, "Area":"Bohuslän","Ambulansstation":"Hallinden",  "latitude":58.46151667,"longitude":11.52885},
      {"id": 13, "Area":"Bohuslän","Ambulansstation":"Lysekil",    "latitude":58.27468333,"longitude":11.4377},
      {"id": 14, "Area":"Bohuslän","Ambulansstation":"Kungshamn",  "latitude":58.364,     "longitude":11.27163333},
      {"id": 15, "Area":"Bohuslän","Ambulansstation":"Uddevalla",  "latitude":58.3533,    "longitude":11.91711667},
      {"id": 16, "Area":"Bohuslän","Ambulansstation":"Orust",      "latitude":58.23208333,"longitude":11.66753333},
      {"id": 17, "Area":"Dalsland","Ambulansstation":"Trollhättan","latitude":58.31993333,"longitude":12.26711667},
      {"id": 18, "Area":"Dalsland","Ambulansstation":"Mellerud",   "latitude":58.69878333,"longitude":12.46125},
      {"id": 19, "Area":"Dalsland","Ambulansstation":"Bengtsfors", "latitude":59.02286667,"longitude":12.24561667},
      {"id": 20, "Area":"Dalsland","Ambulansstation":"Dals Ed",    "latitude":58.90125,   "longitude":11.94411667},
      {"id": 21, "Area":"Dalsland","Ambulansstation":"Åmål",       "latitude":58.05053333,"longitude":12.6906},
      {"id": 22, "Area":"Dalsland","Ambulansstation":"Färgelanda", "latitude":58.56063333,"longitude":11.99036667},
      {"id": 23, "Area":"Dalsland","Ambulansstation":"Lilla Edet", "latitude":58.13056667,"longitude":12.13543333},
      {"id": 24, "Area":"Dalsland","Ambulansstation":"Vänersborg", "latitude":58.3848,    "longitude":12.32378333}],

  "units":
    [ {"Enhet":"51-9120","Station":"Vassen"},
      {"Enhet":"51-9130","Station":"Vassen"},
      {"Enhet":"51-9040","Station":"Vassen"},
      {"Enhet":"51-9150","Station":"Vassen"},
      {"Enhet":"51-9220","Station":"Frölunda"},
      {"Enhet":"51-9230","Station":"Frölunda"},
      {"Enhet":"51-9260","Station":"Mölndal"},
      {"Enhet":"51-9320","Station":"Lundby"},
      {"Enhet":"51-9330","Station":"Torslanda"},
      {"Enhet":"51-9350","Station":"Kortedala"},
      {"Enhet":"51-9360","Station":"Angered"},
      {"Enhet":"51-9610","Station":"Öjersjö"},
      {"Enhet":"51-9810","Station":"Öckerö"},
      {"Enhet":"51-9110","Station":"City"},
      {"Enhet":"51-9210","Station":"Mölndal"},
      {"Enhet":"51-9250","Station":"Mölndal"},
      {"Enhet":"51-9270","Station":"City"},
      {"Enhet":"51-9310","Station":"Lundby"},
      {"Enhet":"51-9370","Station":"City"},
      {"Enhet":"51-9340","Station":"City"},
      {"Enhet":"51-9240","Station":"Frölunda"}]
}