{
  "stations":
    [{ "id":  1, "type" : "S", "area":"Göteborg","name":"Vassen",     "status":"F", "latitude":57.71863333,"longitude":11.98745},
      {"id":  2, "type" : "S", "area":"Göteborg","name":"Kortedala",  "status":"F", "latitude":57.75813333,"longitude":12.02705},
      {"id":  3, "type" : "S", "area":"Göteborg","name":"Angered",    "status":"F", "latitude":57.79735,   "longitude":12.04335},
      {"id":  4, "type" : "S", "area":"Göteborg","name":"Mölndal",    "status":"F", "latitude":57.65781667,"longitude":12.02041667},
      {"id":  5, "type" : "S", "area":"Göteborg","name":"Frölunda",   "status":"F", "latitude":57.6599,    "longitude":11.89905},
      {"id":  6, "type" : "S", "area":"Göteborg","name":"Lundby",     "status":"F", "latitude":57.71153333,"longitude":11.92595},
      {"id":  7, "type" : "S", "area":"Göteborg","name":"Torslanda",  "status":"F", "latitude":57.71688333,"longitude":11.79851667},
      {"id":  8, "type" : "S", "area":"Göteborg","name":"Öckerö",     "status":"F", "latitude":57.70621667,"longitude":11.64765},
      {"id":  9, "type" : "S", "area":"Göteborg","name":"Öjersjö",    "status":"F", "latitude":57.70383333,"longitude":12.15021667},
      {"id": 10, "type" : "S", "area":"Bohuslän","name":"Strömstad",  "status":"F", "latitude":58.94911667,"longitude":11.19336667},
      {"id": 11, "type" : "S", "area":"Bohuslän","name":"Tanum",      "status":"F", "latitude":58.72586667,"longitude":11.32768333},
      {"id": 12, "type" : "S", "area":"Bohuslän","name":"Munkedal",   "status":"F", "latitude":58.47468333,"longitude":11.6637},
      {"id": 13, "type" : "S", "area":"Bohuslän","name":"Hallinden",  "status":"F", "latitude":58.46151667,"longitude":11.52885},
      {"id": 14, "type" : "S", "area":"Bohuslän","name":"Lysekil",    "status":"F", "latitude":58.27468333,"longitude":11.4377},
      {"id": 15, "type" : "S", "area":"Bohuslän","name":"Kungshamn",  "status":"F", "latitude":58.364,     "longitude":11.27163333},
      {"id": 16, "type" : "S", "area":"Bohuslän","name":"Uddevalla",  "status":"F", "latitude":58.3533,    "longitude":11.91711667},
      {"id": 17, "type" : "S", "area":"Bohuslän","name":"Orust",      "status":"F", "latitude":58.23208333,"longitude":11.66753333},
      {"id": 18, "type" : "S", "area":"Dalsland","name":"Trollhättan","status":"F", "latitude":58.31993333,"longitude":12.26711667},
      {"id": 19, "type" : "S", "area":"Dalsland","name":"Mellerud",   "status":"F", "latitude":58.69878333,"longitude":12.46125},
      {"id": 20, "type" : "S", "area":"Dalsland","name":"Bengtsfors", "status":"F", "latitude":59.02286667,"longitude":12.24561667},
      {"id": 21, "type" : "S", "area":"Dalsland","name":"Dals Ed",    "status":"F", "latitude":58.90125,   "longitude":11.94411667},
      {"id": 22, "type" : "S", "area":"Dalsland","name":"Åmål",       "status":"F", "latitude":58.05053333,"longitude":12.6906},
      {"id": 23, "type" : "S", "area":"Dalsland","name":"Färgelanda", "status":"F", "latitude":58.56063333,"longitude":11.99036667},
      {"id": 24, "type" : "S", "area":"Dalsland","name":"Lilla Edet", "status":"F", "latitude":58.13056667,"longitude":12.13543333},
      {"id": 25, "type" : "S", "area":"Dalsland","name":"Vänersborg", "status":"F", "latitude":58.3848,    "longitude":12.32378333}],

  "units":
    [ {"id":  1,  "name":"51-9120","type" : "A", "homeStation":"Vassen",    "status":"U"},
      {"id":  2,  "name":"51-9130","type" : "A", "homeStation":"Vassen",    "status":"K"},
      {"id":  3,  "name":"51-9040","type" : "A", "homeStation":"Vassen",    "status":"K"},
      {"id":  4,  "name":"51-9150","type" : "A", "homeStation":"Vassen",    "status":"K"},
      {"id":  5,  "name":"51-9220","type" : "A", "homeStation":"Frölunda",  "status":"K"},
      {"id":  6,  "name":"51-9230","type" : "A", "homeStation":"Frölunda",  "status":"K"},
      {"id":  7,  "name":"51-9260","type" : "A", "homeStation":"Mölndal",   "status":"K"},
      {"id":  8,  "name":"51-9320","type" : "A", "homeStation":"Lundby",    "status":"K"},
      {"id":  9,  "name":"51-9330","type" : "A", "homeStation":"Torslanda", "status":"K"},
      {"id":  10, "name":"51-9350","type" : "A", "homeStation":"Kortedala", "status":"K"},
      {"id":  11, "name":"51-9360","type" : "A", "homeStation":"Angered",   "status":"K"},
      {"id":  12, "name":"51-9610","type" : "A", "homeStation":"Öjersjö",   "status":"K"},
      {"id":  13, "name":"51-9810","type" : "A", "homeStation":"Öckerö",    "status":"K"},
      {"id":  14, "name":"51-9110","type" : "A", "homeStation":"Vassen",    "status":"K"},
      {"id":  15, "name":"51-9210","type" : "A", "homeStation":"Mölndal",   "status":"K"},
      {"id":  16, "name":"51-9250","type" : "A", "homeStation":"Mölndal",   "status":"K"},
      {"id":  17, "name":"51-9270","type" : "A", "homeStation":"Vassen",    "status":"K"},
      {"id":  18, "name":"51-9310","type" : "A", "homeStation":"Lundby",    "status":"K"},
      {"id":  19, "name":"51-9370","type" : "A", "homeStation":"Vassen",    "status":"K"},
      {"id":  20, "name":"51-9340","type" : "A", "homeStation":"Vassen",    "status":"K"},
      {"id":  21, "name":"51-9240","type" : "A", "homeStation":"Frölunda",  "status":"K"}]
}