{ "stations":
[{ "Area":"Göteborg","Ambulansstation":"Vassen",     "latitude":57.71863333,"longitude":11.98745},
  {"Area":"Göteborg","Ambulansstation":"Kortedala",  "latitude":57.75813333,"longitude":12.02705},
  {"Area":"Göteborg","Ambulansstation":"Angered",    "latitude":57.79735,   "longitude":12.04335},
  {"Area":"Göteborg","Ambulansstation":"Mölndal",    "latitude":57.65781667,"longitude":12.02041667},
  {"Area":"Göteborg","Ambulansstation":"Frölunda",   "latitude":57.6599,    "longitude":11.89905},
  {"Area":"Göteborg","Ambulansstation":"Lundby",     "latitude":57.71153333,"longitude":11.92595},
  {"Area":"Göteborg","Ambulansstation":"Torslanda",  "latitude":57.71688333,"longitude":11.79851667},
  {"Area":"Göteborg","Ambulansstation":"Öckerö",     "latitude":57.70621667,"longitude":11.64765},
  {"Area":"Göteborg","Ambulansstation":"Öjersjö",    "latitude":57.70383333,"longitude":12.15021667},
  {"Area":"Bohuslän","Ambulansstation":"Strömstad",  "latitude":58.94911667,"longitude":11.19336667},
  {"Area":"Bohuslän","Ambulansstation":"Tanum",      "latitude":58.72586667,"longitude":11.32768333},
  {"Area":"Bohuslän","Ambulansstation":"Munkedal",   "latitude":58.47468333,"longitude":11.6637},
  {"Area":"Bohuslän","Ambulansstation":"Hallinden",  "latitude":58.46151667,"longitude":11.52885},
  {"Area":"Bohuslän","Ambulansstation":"Lysekil",    "latitude":58.27468333,"longitude":11.4377},
  {"Area":"Bohuslän","Ambulansstation":"Kungshamn",  "latitude":58.364,     "longitude":11.27163333},
  {"Area":"Bohuslän","Ambulansstation":"Uddevalla",  "latitude":58.3533,    "longitude":11.91711667},
  {"Area":"Bohuslän","Ambulansstation":"Orust",      "latitude":58.23208333,"longitude":11.66753333},
  {"Area":"Dalsland","Ambulansstation":"Trollhättan","latitude":58.31993333,"longitude":12.26711667},
  {"Area":"Dalsland","Ambulansstation":"Mellerud",   "latitude":58.69878333,"longitude":12.46125},
  {"Area":"Dalsland","Ambulansstation":"Bengtsfors", "latitude":59.02286667,"longitude":12.24561667},
  {"Area":"Dalsland","Ambulansstation":"Dals Ed",    "latitude":58.90125,   "longitude":11.94411667},
  {"Area":"Dalsland","Ambulansstation":"Åmål",       "latitude":58.05053333,"longitude":12.6906},
  {"Area":"Dalsland","Ambulansstation":"Färgelanda", "latitude":58.56063333,"longitude":11.99036667},
  {"Area":"Dalsland","Ambulansstation":"Lilla Edet", "latitude":58.13056667,"longitude":12.13543333},
  {"Area":"Dalsland","Ambulansstation":"Vänersborg", "latitude":58.3848,    "longitude":12.32378333}]}