{
  "stations":
    [{ "id":  1, "area":"Göteborg","name":"Vassen",     "latitude":57.71863333,"longitude":11.98745},
      {"id":  2, "area":"Göteborg","name":"Kortedala",  "latitude":57.75813333,"longitude":12.02705},
      {"id":  3, "area":"Göteborg","name":"Angered",    "latitude":57.79735,   "longitude":12.04335},
      {"id":  4, "area":"Göteborg","name":"Mölndal",    "latitude":57.65781667,"longitude":12.02041667},
      {"id":  5, "area":"Göteborg","name":"Frölunda",   "latitude":57.6599,    "longitude":11.89905},
      {"id":  6, "area":"Göteborg","name":"Lundby",     "latitude":57.71153333,"longitude":11.92595},
      {"id":  7, "area":"Göteborg","name":"Torslanda",  "latitude":57.71688333,"longitude":11.79851667},
      {"id":  8, "area":"Göteborg","name":"Öckerö",     "latitude":57.70621667,"longitude":11.64765},
      {"id":  9, "area":"Göteborg","name":"Öjersjö",    "latitude":57.70383333,"longitude":12.15021667},
      {"id": 10, "area":"Bohuslän","name":"Strömstad",  "latitude":58.94911667,"longitude":11.19336667},
      {"id": 11, "area":"Bohuslän","name":"Tanum",      "latitude":58.72586667,"longitude":11.32768333},
      {"id": 12, "area":"Bohuslän","name":"Munkedal",   "latitude":58.47468333,"longitude":11.6637},
      {"id": 13, "area":"Bohuslän","name":"Hallinden",  "latitude":58.46151667,"longitude":11.52885},
      {"id": 14, "area":"Bohuslän","name":"Lysekil",    "latitude":58.27468333,"longitude":11.4377},
      {"id": 15, "area":"Bohuslän","name":"Kungshamn",  "latitude":58.364,     "longitude":11.27163333},
      {"id": 16, "area":"Bohuslän","name":"Uddevalla",  "latitude":58.3533,    "longitude":11.91711667},
      {"id": 17, "area":"Bohuslän","name":"Orust",      "latitude":58.23208333,"longitude":11.66753333},
      {"id": 18, "area":"Dalsland","name":"Trollhättan","latitude":58.31993333,"longitude":12.26711667},
      {"id": 19, "area":"Dalsland","name":"Mellerud",   "latitude":58.69878333,"longitude":12.46125},
      {"id": 20, "area":"Dalsland","name":"Bengtsfors", "latitude":59.02286667,"longitude":12.24561667},
      {"id": 21, "area":"Dalsland","name":"Dals Ed",    "latitude":58.90125,   "longitude":11.94411667},
      {"id": 22, "area":"Dalsland","name":"Åmål",       "latitude":58.05053333,"longitude":12.6906},
      {"id": 23, "area":"Dalsland","name":"Färgelanda", "latitude":58.56063333,"longitude":11.99036667},
      {"id": 24, "area":"Dalsland","name":"Lilla Edet", "latitude":58.13056667,"longitude":12.13543333},
      {"id": 25, "area":"Dalsland","name":"Vänersborg", "latitude":58.3848,    "longitude":12.32378333}],

  "units":
    [ {"name":"51-9120","homeStation":"Vassen"},
      {"name":"51-9130","homeStation":"Vassen"},
      {"name":"51-9040","homeStation":"Vassen"},
      {"name":"51-9150","homeStation":"Vassen"},
      {"name":"51-9220","homeStation":"Frölunda"},
      {"name":"51-9230","homeStation":"Frölunda"},
      {"name":"51-9260","homeStation":"Mölndal"},
      {"name":"51-9320","homeStation":"Lundby"},
      {"name":"51-9330","homeStation":"Torslanda"},
      {"name":"51-9350","homeStation":"Kortedala"},
      {"name":"51-9360","homeStation":"Angered"},
      {"name":"51-9610","homeStation":"Öjersjö"},
      {"name":"51-9810","homeStation":"Öckerö"},
      {"name":"51-9110","homeStation":"Vassen"},
      {"name":"51-9210","homeStation":"Mölndal"},
      {"name":"51-9250","homeStation":"Mölndal"},
      {"name":"51-9270","homeStation":"Vassen"},
      {"name":"51-9310","homeStation":"Lundby"},
      {"name":"51-9370","homeStation":"Vassen"},
      {"name":"51-9340","homeStation":"Vassen"},
      {"name":"51-9240","homeStation":"Frölunda"}]
}